<?xml version="1.0" encoding="UTF-8"?>
<kml xmlns="http://www.opengis.net/kml/2.2"><Document>
  <name>오사카교토 3박4일(예시)</name>
  <Placemark><name>D1-1 간사이공항(KIX) 도착</name><description>10/22(목)</description><Point><coordinates>135.2304,34.4320,0</coordinates></Point></Placemark>
  <Placemark><name>D1-2 난카이 라피트 → 난바</name><description>10/22(목)</description><Point><coordinates>135.5012,34.6620,0</coordinates></Point></Placemark>
  <Placemark><name>D1-3 구로몬시장 점심(가볍게)</name><description>10/22(목)</description><Point><coordinates>135.5065,34.6657,0</coordinates></Point></Placemark>
  <Placemark><name>D1-4 오사카성 천수각</name><description>10/22(목)</description><Point><coordinates>135.5259,34.6873,0</coordinates></Point></Placemark>
  <Placemark><name>D1-5 우메다 스카이빌딩 공중정원</name><description>10/22(목)</description><Point><coordinates>135.4897,34.7052,0</coordinates></Point></Placemark>
  <Placemark><name>D1-6 도톤보리 야경 + 쿠시카츠 다루마</name><description>10/22(목)</description><Point><coordinates>135.5010,34.6686,0</coordinates></Point></Placemark>
  <Placemark><name>D2-1 긴테쓰로 나라 이동</name><description>10/23(금)</description><Point><coordinates>135.8288,34.6845,0</coordinates></Point></Placemark>
  <Placemark><name>D2-2 도다이지(동대사) 대불</name><description>10/23(금)</description><Point><coordinates>135.8398,34.6890,0</coordinates></Point></Placemark>
  <Placemark><name>D2-3 나라공원 사슴 + 나라마치</name><description>10/23(금)</description><Point><coordinates>135.8430,34.6851,0</coordinates></Point></Placemark>
  <Placemark><name>D2-4 점심 후 오사카 복귀</name><description>10/23(금)</description><Point><coordinates>135.4959,34.7025,0</coordinates></Point></Placemark>
  <Placemark><name>D2-5 헵파이브 대관람차</name><description>10/23(금)</description><Point><coordinates>135.4989,34.7043,0</coordinates></Point></Placemark>
  <Placemark><name>D2-6 신세카이 쿠시카츠 저녁</name><description>10/23(금)</description><Point><coordinates>135.5063,34.6524,0</coordinates></Point></Placemark>
  <Placemark><name>D3-1 오사카 → 교토 이동</name><description>10/24(토)</description><Point><coordinates>135.7588,34.9858,0</coordinates></Point></Placemark>
  <Placemark><name>D3-2 후시미이나리 신사(천본도리)</name><description>10/24(토)</description><Point><coordinates>135.7727,34.9671,0</coordinates></Point></Placemark>
  <Placemark><name>D3-3 기모노 체험 (마이리얼트립)</name><description>10/24(토)</description><Point><coordinates>135.7820,34.9962,0</coordinates></Point></Placemark>
  <Placemark><name>D3-4 기요미즈데라 + 산넨자카·니넨자카</name><description>10/24(토)</description><Point><coordinates>135.7850,34.9948,0</coordinates></Point></Placemark>
  <Placemark><name>D3-5 니시키시장 or 카페(가볍게)</name><description>10/24(토)</description><Point><coordinates>135.7648,35.0050,0</coordinates></Point></Placemark>
  <Placemark><name>D3-6 기온·하나미코지 저녁</name><description>10/24(토)</description><Point><coordinates>135.7757,35.0037,0</coordinates></Point></Placemark>
  <Placemark><name>D3-7 교토역 숙소 체크인</name><description>10/24(토)</description><Point><coordinates>135.7588,34.9858,0</coordinates></Point></Placemark>
  <Placemark><name>D4-1 아라시야마 대나무숲(치쿠린)</name><description>10/25(일)</description><Point><coordinates>135.6716,35.0170,0</coordinates></Point></Placemark>
  <Placemark><name>D4-2 텐류지 + 운룡도</name><description>10/25(일)</description><Point><coordinates>135.6738,35.0159,0</coordinates></Point></Placemark>
  <Placemark><name>D4-3 토게츠교 산책</name><description>10/25(일)</description><Point><coordinates>135.6779,35.0130,0</coordinates></Point></Placemark>
  <Placemark><name>D4-4 교토역 복귀 → 짐</name><description>10/25(일)</description><Point><coordinates>135.7588,34.9858,0</coordinates></Point></Placemark>
  <Placemark><name>D4-5 JR 하루카 → 간사이공항</name><description>10/25(일)</description><Point><coordinates>135.2304,34.4320,0</coordinates></Point></Placemark>
  <Placemark><name>D4-6 EX124 출국</name><description>10/25(일)</description><Point><coordinates>135.2304,34.4320,0</coordinates></Point></Placemark>
</Document></kml>
